[
  {
    "id": 1,
    "name": " Wake the Dead Coffee House",
    "description": "Regularly hosting live events, this quirky spot offers coffee, craft brews, sandwiches & treats.",
    "hours": "6am - 6pm",
    "address": "1432 Old, Ranch Rd 12, San Marcos, TX 78666"
  },
  {
    "id": 2,
    "name": " Summer Moon Coffee",
    "description": " Summer Moon Coffee is organic, oak-roasted coffee served in our award-winning coffee shops in Austin, San Antonio, Dallas, Houston, and San Marcos",
    "hours": "6am - 6pm",
    "address": " 1180 Thorpe Ln, San Marcos, TX 78666"
  },
  {
    "id": 3,
    "name": "Tantra SMTX",
    "description": "Art-filled hangout with outdoor seats, espresso drinks, cafe fare & craft beers, plus live music.",
    "hours": "Temporarily Closed",
    "address": "217 W Hopkins St, San Marcos, TX 78666"
  },
  {
    "id": 4,
    "name": "Stellar Coffee co.",
    "description": "Good Humans. Great Vibes. Stellar Coffee.",
    "hours": "8am - 8pm",
    "address": "232 N LBJ Dr #101, San Marcos, TX 78666"
  }
]